ID,Site group (Japanese),Site name (Japanese),Locality name (Japanese),Cultural layer,Site group,Site name ,Locality name,Adress (Japanese),North Latitude,East Longitude,Geodetic system,Altitude (Tokyo Peil),Knife shaped tool,Trapeze（Trapezoid）,Axe shaped tool,Tangged point on blade,Triangulared pointed tool,Lanceolate shaped point,Biface,Micro blade,Mikoshiba type axe shaped tool,Tangged point,End scraper/Scraper,Burin,Whetstone,Hammer stone,Anvil stone,Pebble tool,Others (Japanease),Earthenware from the Incipient Jomon,Lithic cluster,Pebble cluster,Charcoal fragment concentration,Other features,Remark,Citation,CitationID1,CitationID2,Citation ID3,Citation ID4,Citation ID5,CitationID6,Research type,Creation date,Created by,Update date,Updated by,Coordinate check
ID,遺跡群名,遺跡名,地点・地区名,文化層・石器文化,遺跡群名読み方,遺跡名読み方,地点・地区名読み方,所在地,緯度,経度,測地系,標高,ナイフ形石器,台形（様）石器,斧形石器,剥片尖頭器,角錐状石器・三稜尖頭器,槍先形尖頭器,両面調整石器,細石刃・細石核等,神子柴型石斧,有茎（舌）尖頭器,掻器・削器,彫器,砥石,叩石,台石,礫器,その他の石器,草創期土器,ブロック･ユニット,礫群・配石,炭化物集中,その他の遺構,特記事項,文献,文献ID1,文献ID2,文献ID3,文献ID4,文献ID5,文献ID6,調査歴,作成年月日,作成者,更新年月日,更新者,位置修正
330001,,甫崎天神山遺跡,,,,Hosakitenjinyama,,岡山市津寺・甫崎・甫嵜,34.67557,133.81736,世界,20,○,,,,,,,,,,,,,,,,剥片,,,,,,,岡山県教育委員会1994,B330022,,,,,,発掘調査,,西田和浩,20171104,小嶋善邦,1
330002,,雲山遺跡,,,,Kumoyama,,岡山市津寺雲山,34.67221,133.81485,世界,15,○,,,,,,,,,,,,,,,,,,,,,,,岡山県教育委員会1994,B330022,,,,,,発掘調査,,西田和浩,20171104,小嶋善邦,1
330003,,吉備津杉尾西遺跡,,,,Kibitsusugionishi,,岡山市吉備津,34.676944,133.838333,世界,40,○,,,,○,○,,,,,○,,,,,,剥片/石核,,,,,,,岡山市教育委員会2003/岡山市教育委員会2010,B330036,B330114,,,,,発掘調査,,西田和浩,20171104,小嶋善邦,1
330004,,百枝月西畑遺跡,,,,Momoezukinishihata,,岡山市百枝月,34.686389,134.069167,世界,30,,,,,,○,,,,,,,,,,,,,,,,,,岡山県教育委員会2003d,B330035,,,,,,採集資料,,西田和浩,,,
330005,,操山218号遺跡,,,,Misaoyama No.218,,岡山市奥市丸山,34.65815,133.95912,世界,105,○,,,,,,,,,,,,,,,,,,,,,,,岡山県教育委員会2003d,B330035,,,,,,採集資料,,西田和浩,20171104,小嶋善邦,1
330006,,操山219号遺跡,,,,Misaoyama No.219,,岡山市沢田,34.666944,133.9625,世界,50,,,,,,○,,,,,,,,,,,,,,,,,,岡山県教育委員会2003d,B330035,,,,,,採集資料,,西田和浩,,,
330007,,操山217号遺跡,,,,Misaoyama No.217,,岡山市門田文化町２丁目,34.65247,133.94616,世界,30,,,,,,,,○,,,,,,,,,,,,,,,,岡山県教育委員会2003d,B330035,,,,,,採集資料,,西田和浩,20171104,小嶋善邦,1
330008,,西庄,,,,Nishishou,,岡山市西庄・広谷,34.66788,134.0214,世界,60,,,,,,,,,,,,,,,,,,,,,,,器種は不明,岡山県教育委員会2003d,B330035,,,,,,採集資料,,西田和浩,20171104,小嶋善邦,1
330009,,宿毛,,,,Shukumo,,岡山市宿毛,34.625556,134.081944,世界,40,○,,,,,,,,,,,,,,,,,,,,,,,岡山県教育委員会2003d,B330035,,,,,,採集資料,,西田和浩,,,
330010,,弁天島遺跡,,,,Bentenjima,,岡山市郡,34.58422,133.95697,世界,5,,,,,,○,,,,,,,,,,,,,,,,,,岡山県教育委員会2003d,B330035,,,,,,採集資料,,西田和浩,20171104,小嶋善邦,1
330011,,郡,,,,Kouri,,岡山市郡,34.5825,133.959167,世界,10,,,,,,○,,,,,,,,,,,,,,,,,,岡山県教育委員会2003d,B330035,,,,,,採集資料,,西田和浩,,,
330012,,米崎,,,,Komesaki,,岡山市小串,34.57768,134.04463,世界,63,○,,,,,○,,,,,○,,,,,,剥片/石核/使用痕ある剥片/二次加工ある剥片,,,,,,,白石純・小野伸・坂田崇1998,B330075,,,,,,採集資料,,西田和浩,20171104,小嶋善邦,1
330013,,沖鼓島遺跡,第１地点,,,Okitsutsumijima,Loc.1,岡山市犬島沖鼓島,34.56323,134.10876,世界,16,○,,,,,,,,,,,,,,,,剥片/石錐,,,,,,,白石純・小野伸・小野勢1997,B330074,,,,,,採集資料,,西田和浩,20171104,小嶋善邦,1
330014,,沖鼓島遺跡,第２地点,,,Okitsutsumijima,Loc.2,岡山市犬島沖鼓島,34.56267,134.10949,世界,25,,,,,,,,,,,,,,,,,剥片/二次加工ある剥片,,,,,,,白石純・小野伸・小野勢1997,B330074,,,,,,採集資料,,西田和浩,20171104,小嶋善邦,1
330015,,地竹ノ子島遺跡,第１地点,,,Jitakenokojima,Loc.1,岡山市犬島地竹ノ子島,34.56101,134.09091,世界,10,○,,,,,○,,○,,,,,,,,,石核/剥片,,,,,,,白石純・小野伸・小野勢1997,B330074,,,,,,採集資料,,西田和浩,20171104,小嶋善邦,1
330016,,地竹ノ子島遺跡,第２地点,,,Jitakenokojima,Loc.2,岡山市犬島地竹ノ子島,34.56025,134.09198,世界,12,○,,,,,,,,,,,,,,,,石核,,,,,,,白石純・小野伸・小野勢1997,B330074,,,,,,採集資料,,西田和浩,20171104,小嶋善邦,1
330017,,沖竹ノ子島遺跡,第１地点,,,Okitakenokoshima,Loc.1,岡山市犬島沖竹ノ子島,34.55852,134.09265,世界,12,○,,,,○,,,,,,,,,,,,剥片,,,,,,,白石純・小野伸・小野勢1997,B330074,,,,,,採集資料,,西田和浩,20171104,小嶋善邦,1
330018,,沖竹ノ子島遺跡,第２地点,,,Okitakenokoshima,Loc.2,岡山市犬島沖竹ノ子島,34.557222,134.093056,世界,15,○,,,,,,,,,,,,,,,,石核,,,,,,,白石純・小野伸・小野勢1997,B330074,,,,,,採集資料,,西田和浩,,,
330019,,犬島松が鼻遺跡,第１地点,,,Inujimamatsugahana,Loc.1,岡山市犬島,34.55972,134.09718,世界,10,○,,,,,,,○,,,,,,,,,剥片,,,,,,,白石純・小野伸・小野勢1997,B330074,,,,,,採集資料,,西田和浩,20171104,小嶋善邦,1
330020,,犬島小山岬遺跡,第１地点,,,Inujimakoyamamisaki,Loc.1,岡山市犬島,34.56058,134.10072,世界,10,○,,,,,,,,,,,,,,,,剥片,,,,,,,白石純・小野伸・小野勢1997,B330074,,,,,,採集資料,,西田和浩,20171104,小嶋善邦,1
330021,,佐古谷遺跡,,,,Sakonotani,,岡山市彦崎佐古谷,34.54785,133.83292,世界,17,○,,,,,○,,,,,○,,,,,,石核,,,,,炉跡,,灘崎町教育委員会2001,B330096,,,,,,発掘調査,,西田和浩,20171104,小嶋善邦,1
330022,,汐ヶ鼻A遺跡,,,,Shiogahana A,,笠岡市片島浦ノ前西平,34.481389,133.498333,世界,25,○,,,,,,,,,,,,,,,,剥片,,,,,,,岡山県教育委員会1979a,B330013,,,,,,採集資料,,藤原好二,,,
330023,,汐ヶ鼻B遺跡,,,,Shiogahana B,,笠岡市片島アバマ,34.480556,133.498056,世界,25,,,,,,,,,,,,,,,,,剥片,,,,,,,笠岡市教育委員会1985,B330039,,,,,,採集資料,,藤原好二,,,
330024,,下浦A遺跡,,,,Shimoura A,,笠岡市片島浦ノ前,34.478333,133.500833,世界,25,,,,,,,,,,,,,,,,,剥片,,,,,,,笠岡市教育委員会1985,B330039,,,,,,採集資料,,藤原好二,,,
330025,,下浦B遺跡,,,,Shimoura B,,笠岡市片島八幡前,34.478333,133.501667,世界,25,○,,,,,,,,,,,,,,,,剥片,,,,,,,笠岡市教育委員会1985/藤原好二1996b,B330039,B330094,,,,,採集資料,,藤原好二,,,
330026,,下浦C遺跡,,,,Shimoura C,,笠岡市片島八幡前,34.477222,133.502222,世界,20,○,,,,,○,,○,,,,,,,,,剥片,,,,,,,笠岡市教育委員会1985/藤原好二1996b,B330039,B330094,,,,,採集資料,,藤原好二,,,
330027,,下浦D遺跡,,,,Shimoura D,,笠岡市片島金敷,34.478611,133.502222,世界,30,○,,,,,○,,,,,,,,,,,剥片,,,,,,,笠岡市教育委員会1985,B330039,,,,,,採集資料,,藤原好二,,,
330028,,下浦E遺跡,,,,Shimoura E,,笠岡市片島サコ,34.479722,133.501944,世界,30,,,,,,,,,,,,,,,,,剥片,,,,,,,笠岡市教育委員会1985,B330039,,,,,,採集資料,,藤原好二,,,
330029,,高丸A遺跡,,,,Takamaru A,,笠岡市片島影浦東,34.480833,133.507222,世界,30,,,,,,,,,,,,,,,,,剥片,,,,,,,笠岡市教育委員会1985,B330039,,,,,,発掘調査,,藤原好二,,,
330030,,高丸B遺跡,,,,Takamaru B,,笠岡市片島影浦東,34.480556,133.5075,世界,30,,,,,,,,,,,,,,,,,剥片,,,,,,,笠岡市教育委員会1985,B330039,,,,,,発掘調査,,藤原好二,,,
330031,,上浦八幡遺跡,,,,Kamiurahachiman,,笠岡市片島西浦,34.480556,133.508611,世界,40,,,,,,,,,,,,,,,,,剥片,,,,,,,笠岡市教育委員会1985,B330039,,,,,,採集資料,,藤原好二,,,
330032,,上浦A遺跡,,,,Kamiura A,,笠岡市片島上浦,34.481667,133.510278,世界,30,,,,,,,,,,,,,,,,,剥片,,,,,,,笠岡市教育委員会1985,B330039,,,,,,採集資料,,藤原好二,,,
330033,,片島C遺跡,,,,Katashima C,,笠岡市片島,34.478056,133.501111,世界,35,○,,,,,○,,,,,,,,,,,剥片,,,,,,,藤原好二1996b,B330094,,,,,,採集資料,,藤原好二,,,
330034,,片島D遺跡,,,,Katashima D,,笠岡市片島,34.477778,133.498611,世界,30,,,,,,,,,,,,,,,,,剥片,,,,,,,藤原好二1996b,B330094,,,,,,採集資料,,藤原好二,,,
330035,,片島E遺跡,,,,Katashima E,,笠岡市片島,34.477778,133.498056,世界,30,○,,,,,,,,,,,,,,,,剥片,,,,,,,藤原好二1996b,B330094,,,,,,採集資料,,藤原好二,,,
330036,,道通浜,,,,Michidooshihama,,笠岡市横島道通浜,34.481111,133.521944,世界,15,,,,,,,,,,,,,,,,,剥片,,,,,,県遺跡地図では横島大谷遺跡,岡山県教育委員会2003b,B330028,,,,,,採集資料,,藤原好二,20171104,小嶋善邦,1
330037,,差出島遺跡,,,,Sasudejima,,笠岡市高島差出島,34.439167,133.503333,世界,57,,,,,,,,,,,,,,,,,剥片,,,,,,,笠岡市史編さん委員会1983,B330040,,,,,,採集資料,,藤原好二,,,
330038,,明地島遺跡,第３地点,,,Myoujishima,Loc.3,笠岡市高島明地島,34.432778,133.498333,世界,45,,,,,,,,,,,,,,,,,翼状剥片,,,,,,,笠岡市史編さん委員会1983,B330040,,,,,,採集資料,,藤原好二,,,
330039,,明地島遺跡,第４地点,,,Myoujishima,Loc.4,笠岡市高島明地島,34.430833,133.498056,世界,26,○,,,,,○,,,,,,,,,,,,,,,,,,笠岡市史編さん委員会1983,B330040,,,,,,採集資料,,藤原好二,,,
330040,,明地島遺跡,第５地点,,,Myoujishima,Loc.5,笠岡市高島明地島,34.433889,133.499722,世界,25,,,,,,,,,,,,,,,,,剥片,,,,,,,笠岡市史編さん委員会1983,B330040,,,,,,採集資料,,藤原好二,,,
330041,,高島遺跡,第５地点,,,Takashima,Loc.5,笠岡市高島谷ノ奥,34.426389,133.508056,世界,30,○,,,,,,,,,,,,,,,,,,,,,,,笠岡市史編さん委員会1983,B330040,,,,,,採集資料,,藤原好二,,,
330042,,持立,,,,Mochitate,,笠岡市白石島持立,34.40055,133.51871,世界,10,,,,,,,,,,,,,,,,,剥片,,,,,,,岡山県教育委員会2003b,B330028,,,,,,採集資料,,藤原好二,20171104,小嶋善邦,1
330043,,持立,,,,Mochitate,,笠岡市白石島持立,34.399444,133.518056,世界,12,,,,,,,,,,,,,,,,,剥片,,,,,,,岡山県教育委員会2003b,B330028,,,,,,採集資料,,藤原好二,,,
330044,,楠,,,,Kusunoki,,笠岡市北木島楠,34.393611,133.549444,世界,40,,,,,,,,,,,,,,,,,剥片,,,,,,,岡山県教育委員会2003b,B330028,,,,,,採集資料,,藤原好二,,,
330045,,布越遺跡,,,,Nunogoshi,,笠岡市北木島布越,34.395,133.556389,世界,40,,,,,,,,○,,,,,,,,,剥片,,,,,,,笠岡市史編さん委員会1983,B330040,,,,,,採集資料,,藤原好二,,,
330046,,戒浦,,,,Kaiura,,笠岡市小飛島戎浦,34.34421,133.52035,世界,30,,,,,,,,,,,,,,,,,剥片,,,,,,,岡山県教育委員会2003b,B330028,,,,,,採集資料,,藤原好二,20171104,小嶋善邦,1
330047,,大谷,,,,Ootani,,笠岡市真鍋島大谷,34.360278,133.5825,世界,50,,,,,,,,,,,,,,,,,剥片,,,,,,,岡山県教育委員会2003b,B330028,,,,,,採集資料,,藤原好二,,,
330048,,大島,,,,Ooshima,,笠岡市六島大鳥,34.308333,133.538611,世界,32,,,,,,,,,,,,,,,,,剥片,,,,,,,岡山県教育委員会2003b,B330028,,,,,,採集資料,,藤原好二,,,
330049,,大島,,,,Ooshima,,笠岡市六島大鳥,34.307222,133.538333,世界,10,,,,,,,,,,,,,,,,,剥片,,,,,,,岡山県教育委員会2003b,B330028,,,,,,採集資料,,藤原好二,,,
330050,,前浦遺跡,,,,Maeura,,笠岡市六島前浦,34.300833,133.534722,世界,50,○,,,,,,,○,,,,,,,,,剥片,,,,,,,笠岡市史編さん委員会1983,B330040,,,,,,採集資料,,藤原好二,,,
330051,,阿部山遺跡,,,,Abesan,,笠岡市尾坂北山,34.583333,133.570833,世界,364,○,,,,,,,,,,,,,,,,,,,,,,,鴨方町史編纂委員会1990,B330048,,,,,,採集資料,,藤原好二,,,
330052,,八重山遺跡,,,,Yaeyama,,浅口市金光町八重,34.540833,133.6375,世界,21,○,,,,,○,,,,,,,,,,,翼状剥片,,,,,,,金光町史編纂委員会2003,B330061,,,,,,採集資料,,藤原好二,,,
330053,,道木遺跡,,,,Michiki,,浅口市金光町占見新田道木,34.549167,133.632222,世界,36,○,,,,,,,,,,,,,,,,剥片,,,,,,,金光町史編纂委員会2003/岡山県教育委員会2003b,B330061,B330028,,,,,採集資料,,藤原好二,,,
330054,,和田遺跡,,,,Wada,,浅口市鴨方町和田,34.551667,133.591111,世界,40,,,,,,,,,,○,,,,,,,,,,,,,,岡山県教育委員会1981a,B330015,,,,,,発掘調査,,藤原好二,,,
330055,,青佐山遺跡,,,,Aosayama,,浅口市寄島町青佐青佐山,34.471389,133.576111,世界,30,,,,,,,,,,,,,,,,,剥片,,,,,,,町誌編纂委員会1966,B330079,,,,,,採集資料,,藤原好二,,,
330056,,つぶ山遺跡,,,,Tsubuyama,,浅口市寄島町早崎,34.48459,133.58557,世界,50,,,,,,,,,,,,,,,,,剥片,,,,,,,町誌編纂委員会1966/藤原好二1996b,B330079,B330094,,,,,採集資料,,藤原好二,20171104,小嶋善邦,1
330057,,三郎島遺跡,,,,Saburojima,,浅口市寄島町寄島,34.473056,133.595833,世界,80,○,,,,,,,,,○,,,,,,,剥片,,,,,,,町誌編纂委員会1966/藤原好二1996b,B330079,B330094,,,,,採集資料,,藤原好二,,,
330058,,酒津遺跡,,,,Sakazu,,倉敷市酒津,34.611111,133.744722,世界,7,○,,,,,,,,,,,,,,,,,,,,,,倉敷埋蔵文化財センター保管,,,,,,,,採集資料,,藤原好二,,,
330059,,明見谷池西遺跡,,,,Myokendaniike nishi,,倉敷市浅原,34.622778,133.768333,世界,40,,,,,,,,,,,,,,,,,剥片,,,,,,,岡山県教育委員会2003h,B330032,,,,,,採集資料,,藤原好二,20171104,小嶋善邦,1
330060,,菅生小学校裏山遺跡,,,,Sugo shogakko urayama,,倉敷市西坂,34.626667,133.773056,世界,5,○,,,,,○,,,,,,,,,,,剥片,,,,,,,岡山県教育委員会1993a,B330020,,,,,,発掘調査,,藤原好二,20171104,小嶋善邦,1
330061,,菅生小学校裏山遺跡,,,,Sugo shogakko urayama,,倉敷市西坂,34.624167,133.772222,世界,83,,,,,,,,,,,,,,,,,剥片,,,,,,,間壁葭子1966,B330097,,,,,,採集資料,,藤原好二,,,
330062,二子御堂奥古窯跡群,,,,Futago-midooku,,,倉敷市二子,34.645,133.809167,世界,10,,,,,,,,,,○,,,,,,,,,,,,,,藤原好二1996a,B330093,,,,,,発掘調査,,藤原好二,,,
330063,,矢部堀越遺跡,,,,Yabehorikoshi,,倉敷市矢部,34.666389,133.813611,世界,20,,,,,○,○,,,,,,,,,,,,,,,,,,岡山県教育委員会1993b,B330021,,,,,,発掘調査,,藤原好二,,,
330064,,伊能軒遺跡,,,,Inouken,,倉敷市矢部,34.662222,133.8175,世界,15,,,,,,,,,,○,,,,,,,,,,,,,,藤原好二1996a,B330093,,,,,,発掘調査,,藤原好二,,,
330065,,日畑廃寺遺跡,,,,Hibata,,倉敷市日畑,34.65999,133.82885,世界,6,,,,,,,,,,,,,,,,,石核,,,,,,,倉敷埋蔵文化財センター2005,B330058,,,,,,発掘調査,,藤原好二,20171104,小嶋善邦,1
330066,,王墓山古墳,,,,Obosan kofun,,倉敷市日畑,34.659444,133.826389,世界,40,,,,,○,,,,,,,,,,,,,,,,,,倉敷埋蔵文化財センター保管,,,,,,,,採集資料,,藤原好二,,,
330067,,上東遺跡,,,,Joto,,倉敷市上東,34.650833,133.827778,世界,2,,,,,,,,,,,,,,,,,横長剥片石核,,,,,,,倉敷埋蔵文化財センター2002/倉敷市埋蔵文化財センター2007,B330057,B330108,,,,,発掘調査,,藤原好二,,,
330068,,うしぐそ山遺跡,,,,Ushigusoyama,,倉敷市羽島,34.597778,133.78,世界,34,,,,,,,,○,,,,,,,,,,,,,,,,倉敷市教育委員会2005,B330052,,,,,,採集資料,,藤原好二,,,
330069,,白銀山遺跡,,,,Shiroganeyama,,倉敷市玉島乙島,34.5525,133.690278,世界,40,,,,,,,,,,,,,,,,,剥片,,,,,,,倉敷埋蔵文化財センター2002,B330057,,,,,,採集資料,,藤原好二,,,
330070,,西元浜貝塚,,,,Nishimotohama,,倉敷市玉島黒崎,34.534444,133.64,世界,10,,,,,,,,,,○,,,,,,,,,,,,,倉敷埋蔵文化財センター保管,,,,,,,,採集資料,,藤原好二,,,
330071,,中津貝塚,,,,Nakatsu,,倉敷市玉島黒崎,34.525278,133.641667,世界,6,,,,,,,,,,○,,,,,,,,,,,,,,藤原好二1996a,B330093,,,,,,採集資料,,藤原好二,,,
330072,,矢頭遺跡,,,,Yatou,,倉敷市玉島黒崎,34.526667,133.638889,世界,6,,,,,,,,,,○,,,,,,,,,,,,,,原田虎平1931,B330088,,,,,,採集資料,,藤原好二,,,
330073,,小原南遺跡,,,,Obaraminami,,倉敷市玉島黒崎,34.505833,133.646667,世界,40,,,,,,,,,,,,,,,,,剥片,,,,,,,倉敷市教育委員会1999,B330050,,,,,,採集資料,,藤原好二,,,
330074,,辻堂遺跡,,,,Tsujidou,,倉敷市連島町連島,34.5625,133.738333,世界,104,○,,,,,,,,,,,,,,,,剥片,,,,,,,間壁葭子1966,B330097,,,,,,採集資料,,藤原好二,,,
330075,,足高山南遺跡,,,,Ashitakayamaminami,,倉敷市笹沖,34.574444,133.763611,世界,22,,,,,,,,,,,,,,,,,剥片,,,,,,,倉敷市教育委員会2005,B330052,,,,,,採集資料,,藤原好二,,,
330076,,福田貝塚裏山遺跡,,,,Fukuda kaizuka urayama,,倉敷市福田町古新田,34.553889,133.765556,世界,95,○,,,,,,,,,,,,,,,,,,,,,,,間壁葭子1966/(財)倉敷考古館1972,B330097,B330062,,,,,採集資料,,藤原好二,,,
330077,,ビクニ谷遺跡,,,,Bikunidani,,倉敷市福田町浦田,34.554167,133.758333,世界,30,,,,,,,,,,,,,,,,,剥片,,,,,,,倉敷市教育委員会2005,B330052,,,,,,採集資料,,藤原好二,,,
330078,,古城池北遺跡,,,,Kojoike kita,,倉敷市福田町福田,34.551667,133.756389,世界,44,,,,,,,,,,,,,,,,,剥片,,,,,,,倉敷市教育委員会2005,B330052,,,,,,採集資料,,藤原好二,,,
330079,,真弓池遺跡,,,,Mayumiike,,倉敷市福田町福田,34.5375,133.784167,世界,155,,,,,,,,,,,,,,,,,剥片,,,,,,,倉敷市教育委員会2005,B330052,,,,,,採集資料,,藤原好二,,,
330080,,種松山南遺跡,,,,Tanematsuyama minami,,倉敷市粒江,34.544722,133.789167,世界,240,,,,,,,,,,,,,,,,,剥片,,,,,,,倉敷市教育委員会2001,B330051,,,,,,採集資料,,藤原好二,,,
330081,,一尺谷上池遺跡,,,,Isshakudani kamiike,,倉敷市粒江,34.541389,133.791389,世界,190,○,,,,,,,,,○,,,,,,,石核,,,,,,,藤原好二1998b,B330096,,,,,,採集資料,,藤原好二,,,
330082,,山の鼻遺跡,,,,Yamanohana,,倉敷市福田町広江,34.523889,133.771944,世界,32,○,,,,,,,,,,,,,,,,,,,,,,,倉敷市教育委員会2005,B330052,,,,,,採集資料,,藤原好二,,,
330083,,常光寺遺跡,,,,Jokoji,,倉敷市福田町広江,34.513611,133.756667,世界,25,,,,,,,,,,,,,,,,,剥片,,,,,,,倉敷市教育委員会2005,B330052,,,,,,採集資料,,藤原好二,,,
330084,,大山崎遺跡,,,,Ooyamazaki,,倉敷市福田町広江,34.512222,133.755556,世界,26,,,,,,,,,,,,,,,,,剥片,,,,,,,倉敷市教育委員会2005,B330052,,,,,,採集資料,,藤原好二,,,
330085,,西ノ山遺跡,,,,Nishinoyama,,倉敷市曽原,34.5325,133.800833,世界,40,,,,,,,,○,,,,,,,,,剥片,,,,,,,藤原好二1992,B330092,,,,,,採集資料,,藤原好二,20171125,小嶋善邦,1
330086,,一等寺裏遺跡,,,,Ittoji ura,,倉敷市曽原,34.538611,133.806389,世界,45,,,,,,,,,,,,,,,,,剥片,,,,,,,倉敷市教育委員会2001,B330051,,,,,,採集資料,,藤原好二,,,
330087,曽原窯跡群,,,,Sobara,,,倉敷市曽原,34.535,133.795278,世界,110,○,,,,,,,,,,,,,,,,,,,,,,,倉敷埋蔵文化財センター1999,B330056,,,,,,採集資料,,藤原好二,,,
330088,,戸津田遺跡,,,,Totsuda,,倉敷市串田・林,34.54,133.811667,世界,50,,,,,○,,,,,,,,,,,,,,,,,,,倉敷市教育委員会2001,B330051,,,,,,採集資料,,藤原好二,,,
330089,,緒興寺跡,,,,Shokoji ato,,倉敷市木見,34.530833,133.820833,世界,12,,,,,,,,,,○,,,,,,,,,,,,,,倉敷市教育委員会2001,B330051,,,,,,採集資料,,藤原好二,,,
330090,,前山遺跡,,,,Maeyama,,倉敷市福江,34.525833,133.801944,世界,65,,,,,,,,,,○,,,,,,,,,,,,,,鎌木義昌1950,B330041,,,,,,発掘調査,,藤原好二,,,
330091,,妙見山遺跡,,,,Myokenyama,,倉敷市児島由加,34.508333,133.853889,世界,283,,,,,,,,,,,,,,,,,剥片,,,,,,,倉敷市教育委員会2001,B330051,,,,,,採集資料,,藤原好二,,,
330092,,桜園地遺跡,,,,Sakuraenchi,,倉敷市児島由加,34.506944,133.850278,世界,273,,,,,,,,,,,,,,,,,剥片,,,,,,,倉敷埋蔵文化財センター1997,B330055,,,,,,採集資料,,藤原好二,,,
330093,,帆崎遺跡,,,,Hozaki,,倉敷市玉島黒崎,34.495,133.618056,世界,75,,,,,,,,,,,,,,,,,剥片,,,,,,,倉敷市教育委員会1999,B330050,,,,,,採集資料,,藤原好二,,,
330094,,山王遺跡,,,,Sannou,,倉敷市玉島黒崎,34.495833,133.622778,世界,25,,,,,,,,,,,,,,,,,剥片,,,,,,,倉敷市教育委員会1999,B330050,,,,,,採集資料,,藤原好二,,,
330095,,諏訪神社遺跡,,,,Suwa jinjya,,倉敷市玉島黒崎,34.502222,133.637778,世界,20,,,,,,,,,,,,,,,,,剥片,,,,,,,倉敷市教育委員会1999,B330050,,,,,,採集資料,,藤原好二,,,
330096,,上水島遺跡,,,,Kamimizushima,,倉敷市上水島,34.462778,133.713611,世界,51,○,,,,,,,○,,,,,,,,,,,,,,,,倉敷市教育委員会1999/倉敷埋蔵文化財センター2017,B330050,B330118,,,,,発掘調査,,藤原好二,,,
330097,,金浜上遺跡,,,,Kanahamakami,,倉敷市児島塩生,34.489722,133.768611,世界,40,○,,,,,,,,,,,,,,,,,,,,,,,間壁葭子1966,B330097,,,,,,採集資料,,藤原好二,,,
330098,,高島北の鼻遺跡,,,,Takashimakitanohana,,倉敷市児島塩生,34.480833,133.758333,世界,30,,,,,,,,,,,,,,,,,剥片,,,,,,,倉敷市教育委員会2001,B330051,,,,,,採集資料,,藤原好二,,,
330099,,高島西遺跡,,,,Takashimanishi,,倉敷市児島塩生,34.477778,133.757778,世界,35,,,,,,,,,,,,,,,,,剥片,,,,,,,倉敷市教育委員会2001,B330051,,,,,,採集資料,,藤原好二,,,
330100,,高島エビス鼻遺跡,,,,Takashimaebisubana,,倉敷市児島塩生,34.476389,133.756944,世界,20,○,,,,,,,,,,,,,,,,,,,,,,,間壁葭子1966,B330097,,,,,,採集資料,,藤原好二,,,
330101,,高島東遺跡,,,,Takashimahigashi,,倉敷市児島塩生,34.477222,133.760278,世界,15,,,,,,,,,,,,,,,,,剥片,,,,,,,倉敷市教育委員会2001,B330051,,,,,,採集資料,,藤原好二,,,
330102,,高島南遺跡,,,,Takashimaminami,,倉敷市児島塩生,34.475833,133.759722,世界,25,,,,,,,,,,,,,,,,,剥片,,,,,,,倉敷市教育委員会2001,B330051,,,,,,採集資料,,藤原好二,,,
330103,,竜王山遺跡,,,,Ryuousan,,倉敷市児島味野・赤崎,34.463889,133.790833,世界,209,○,,,,,,,,,,,,,,,,,,,,,,,藤原好二1998a,B330095,,,,,,採集資料,,藤原好二,,,
330104,,宮の鼻遺跡,,,,Miyanohana,,倉敷市児島塩生,34.462778,133.7675,世界,30,○,,,,,,,,,,,,,,,,,,,,,,,間壁葭子1966/倉敷市教育委員会・倉敷市文化財保護委員会1968,B330097,B330129,,,,,採集資料,,藤原好二,,,
330105,,湊岬遺跡,,,,Minatozaki,,倉敷市児島塩生,34.456111,133.771944,世界,62,,,,,,,,,,,,,,,,,剥片,,,,,,,倉敷市教育委員会2001,B330051,,,,,,採集資料,,藤原好二,,,
330106,,灯籠崎西遺跡,,,,Tourouzakinishi,,倉敷市下津井,34.438611,133.785278,世界,71,,,,,,,,,,,,,,,,,剥片,,,,,,,倉敷埋蔵文化財センター1997,B330055,,,,,,発掘調査,,藤原好二,,,
330107,,灯籠崎遺跡,,,,Tourouzaki,,倉敷市下津井,34.436389,133.786944,世界,55,,,,,,,,,,,,,,,,,剥片,,,,,,,倉敷埋蔵文化財センター1996,B330054,,,,,,発掘調査,,藤原好二,,,
330108,,鷲羽山遺跡,,,,Washuzan,,倉敷市下津井田之浦・大畠,34.435,133.814444,世界,110,○,,,,○,○,,○,,,○,,,,,,石核／剥片,,,,,,,山本慶一1969/鎌木義昌1956/倉敷市教育委員会・倉敷市文化財保護委員会1968/(財)倉敷考古館1969/高橋護1986/(財)倉敷考古館1987,B330103,B330042,B330129,,,,発掘調査,,藤原好二,,,
330109,,細濃地島遺跡,,,,Hosonojishima,,倉敷市細濃地島,34.45,133.748611,世界,25,,,,,,,,,,,,,,,,,剥片,,,,,,,倉敷市教育委員会2001,B330051,,,,,,採集資料,,藤原好二,,,
330110,,上濃地島遺跡,,,,Kaminojishima,,倉敷市上濃地島,34.443333,133.758056,世界,30,,,,,,,,,,,,,,,,,剥片,,,,,,,倉敷市教育委員会2001,B330051,,,,,,採集資料,,藤原好二,,,
330111,,六口島茶屋鼻遺跡,,,,Mukuchijimacyayabana,,倉敷市六口島,34.426944,133.766111,世界,20,,,,,,,,,,○,,,,,,,剥片,,,,,,,(財)倉敷考古館1972/倉敷市教育委員会・倉敷市文化財保護委員会1968,B330062,B330129,,,,,採集資料,,藤原好二,,,
330112,,下津井松島遺跡,,,,Shimotsuimatsushima,,倉敷市松島,34.425278,133.816944,世界,25,,,,,,,,,,,,,,,,,剥片,,,,,,,倉敷市教育委員会2001,B330051,,,,,,採集資料,,藤原好二,,,
330113,,釜島第1遺跡,,,,Kamashima No.1,,倉敷市下津井釜島,34.423056,133.828333,世界,40,,,,,,○,,○,,,○,,,,,,剥片,,,,,,,倉敷埋蔵文化財センター2002,B330057,,,,,,発掘調査,,藤原好二,,,
330114,,釜島第3遺跡,,,,Kamashima No.3,,倉敷市下津井釜島,34.423611,133.831111,世界,14,,,,,,,,,,,,,,,,,剥片,,,,,,,倉敷市教育委員会2001,B330051,,,,,,採集資料,,藤原好二,,,
330115,,釜島第4遺跡,,,,Kamashima No.4,,倉敷市下津井釜島,34.422778,133.834722,世界,25,,,,,,,,,,,,,,,,,剥片,,,,,,,倉敷市教育委員会2001,B330051,,,,,,採集資料,,藤原好二,,,
330116,,釜島第5遺跡,,,,Kamashima No.5,,倉敷市下津井釜島,34.421111,133.830556,世界,27,,,,,,,,,,,,,,,,,剥片,,,,,,,倉敷市教育委員会2001,B330051,,,,,,採集資料,,藤原好二,,,
330117,,釜島第6遺跡,,,,Kamashima No.6,,倉敷市下津井釜島,34.419167,133.831111,世界,20,,,,,,,,,,,,,,,,,剥片,,,,,,,倉敷市教育委員会2001,B330051,,,,,,採集資料,,藤原好二,,,
330118,,竪場島遺跡,,,,Tatebajima,,倉敷市竪場島,34.448333,133.852778,世界,45,○,,,,,,,,,,,,,,,,剥片,,,,,,,鎌木義昌・高橋護1965/鎌木義昌・小林博昭1986c,B330047,B330139,,,,,発掘調査,,藤原好二,,,
330119,,萱苅遺跡,,,,Kayakari,,倉敷市児島下の町,34.470833,133.816389,世界,37,,,,,,,,,,,,,,,,,剥片,,,,,,,倉敷市教育委員会2001,B330051,,,,,,採集資料,,藤原好二,,,
330120,,大谷遺跡,,,,0tani,,倉敷市児島小川,34.469722,133.812222,世界,38,,,,,,,,,,,,,,,,,剥片,,,,,,,倉敷市教育委員会2001,B330051,,,,,,採集資料,,藤原好二,,,
330121,,山際紫山遺跡,,,,Yamagiwakoyama,,倉敷市児島上の町,34.487778,133.813889,世界,30,,,,,,,,,,○,,,,,,,,,,,,,,岡山県教育委員会1988b/藤原好二1996a,B330018,B330093,,,,,発掘調査,,藤原好二,,,
330122,,琴浦向山遺跡,,,,Kotouramukoyama,,倉敷市児島田の口,34.479722,133.8325,世界,70,,,,,,,,,,○,,,,,,,,,,,,,,倉敷市教育委員会・倉敷市文化財保護委員会1968/藤原好二1996a,B330129,B330093,,,,,採集資料,,藤原好二,,,
330123,,仙随山遺跡,,,,Senzuiyama,,倉敷市児島田の口,34.483889,133.838889,世界,233,,,,,,,,,,,,,,,,,剥片,,,,,,,倉敷埋蔵文化財センター1999,B330056,,,,,,採集資料,,藤原好二,,,
330124,,岩滝山遺跡,,,,Iwatakiyama,,倉敷市児島田の口,34.473056,133.852222,世界,170,,,,,,,,,,,,,,,,,剥片,,,,,,,倉敷市教育委員会2001,B330051,,,,,,採集資料,,藤原好二,,,
330125,,鵜石鼻遺跡,,,,Ueshibana,,倉敷市児島唐琴町,34.468333,133.858889,世界,17,○,,,,,,,,,,,,,,,,石核／翼状剥片,,,,,,,倉敷市教育委員会2001,B330051,,,,,,発掘調査,,藤原好二,,,
330126,,王子が岳第1遺跡,,,,Ojigadake No.1,,倉敷市児島唐琴町,34.465833,133.877222,世界,230,,,,,,,,,,,,,,,,,剥片,,,,,,,倉敷市教育委員会2001,B330051,,,,,,採集資料,,藤原好二,,,
330127,,王子が岳第2遺跡,,,,Ojigadake No.2,,倉敷市児島唐琴町,34.47,133.870556,世界,140,,,,,,,,,,,,,,,,,剥片,,,,,,,倉敷市教育委員会2001,B330051,,,,,,採集資料,,藤原好二,,,
330128,,王子が岳第3遺跡,,,,Ojigadake No.3,,倉敷市児島唐琴町,34.468056,133.870556,世界,130,,,,,,,,,,,,,,,,,剥片,,,,,,,倉敷市教育委員会2001,B330051,,,,,,採集資料,,藤原好二,,,
330129,,王子が岳第4遺跡,,,,Ojigadake No.4,,倉敷市児島唐琴町,34.466389,133.872778,世界,140,,,,,,,,,,,,,,,,,剥片,,,,,,,倉敷市教育委員会2001,B330051,,,,,,採集資料,,藤原好二,,,
330130,,王子が岳第5遺跡,,,,Ojigadake No.5,,倉敷市児島唐琴町,34.460278,133.881944,世界,200,,,,,,,,,,,,,,,,,剥片,,,,,,,倉敷市教育委員会2001,B330051,,,,,,採集資料,,藤原好二,,,
330131,,王子が岳南麓遺跡,,,,Ojigadake nanroku,,倉敷市児島唐琴町字嶽山1422-9/玉野市渋川,34.45725,133.880611,世界,15,○,,○,,,○,,,,○,○,,,○,,,石核・剥片,,,,,,,倉敷埋蔵文化財センター1995,B330053,,,,,,発掘調査,,藤原好二,20171118,光石鳴巳,1
330132,,井尻野遺跡,,,,Ijirino,,総社市井尻野東村,34.683056,133.731944,世界,30,,,,,,○,,,,,,,,,,,,,,,,,,総社市教育委員会1997,B330076,,,,,,採集資料,,藤原好二,,,
330133,,宝福寺裏山遺跡,,,,Hofukuji urayama,,総社市井尻野,34.691667,133.733333,世界,40,○,,,,,,,,,,,,,,,,,,,,,,,間壁葭子1966/総社市史編さん委員会1987/総社市史編さん委員会1998,B330097,B330077,B330124,,,,採集資料,,藤原好二,,,
330134,,浅尾遺跡,,,,Asao,,総社市小寺,34.680278,133.739444,世界,35,○,,,,,,,,,,,,,,,,翼状薄片/尖頭器未製品,,,,,,,総社市史編さん委員会1987/総社市史編さん委員会1998,B330077,B330124,,,,,採集資料,,藤原好二,,,
330135,,福島山遺跡,,,,Fukushimayama,,倉敷市船穂町福島,34.566111,133.695,世界,30,○,,,,,,,,,,,,,,,,矢柄研磨器,,,,,,,間壁葭子1974,B330098,,,,,,採集資料,,藤原好二,,,
330136,,新町,,,,shinmachi ,,倉敷市真備町岡田新町,34.645833,133.708611,世界,11,,,,,,,,,,,,,,,,,加工痕のある剥片,,,,,,,岡山県教育委員会2003c,B330030,,,,,,採集資料,,藤原好二,,,
330137,,陣山遺跡,,,,Jinyama,,高梁市松原町字陣山2716-1,34.83338,133.54066,世界,445,,,,,,○,,,,,○,,,,,,,,,,,,,高梁市教育委員会1999,B330078,,,,,,採集資料,,藤原好二,20171105,小嶋善邦,1
330138,,塩納成遺跡,,包含層,,Shionounaru,,赤磐郡瀬戸町塩納字成,34.763056,134.061111,世界,35,,,,,,,,,,,,,,,,,石核・剥片,,,,,,,岡山県教育委員会2003g,B330034,,,,,,採集資料,20050705,小嶋善邦,20171105,小嶋善邦,1
330139,,平木,,,,Hiraki,,赤磐市弥上字平木,34.769722,134.055278,世界,140,,,,,,,,,,,,,,,,,剥片,,,,,,,岡山県教育委員会2003g,B330034,,,,,,採集資料,20050705,小嶋善邦,20171105,小嶋善邦,1
330140,,平木,,,,Hiraki,,赤磐市弥上字平木,34.771111,134.055833,世界,130,,,,,,,,,,,,,,,,,チョッピングツール？,,,,,,,和気郡史刊行会1981b/和気郡史刊行会1981a,B330105,B330104,,,,,採集資料,20050705,小嶋善邦,20171105,小嶋善邦,1
330141,,木下,,,,Kinoshita,,赤磐市弥上字平木下,34.775278,134.059722,世界,120,,,,,,,,,,,,,,,,,剥片,,,,,,,岡山県教育委員会2003g,B330034,,,,,,採集資料,20050705,小嶋善邦,20171105,小嶋善邦,1
330142,,坂口,,,,Sakaguchi,,赤磐市可真下字坂口,34.791944,134.066944,世界,50,,,,,,,,,,,,,,,,,尖頭器,,,,,,,熊山町市編纂委員会1994,B330049,,,,,,採集資料,20050705,小嶋善邦,20171105,小嶋善邦,1
330143,,狼穴洞穴遺跡,,,,Ookamiana cave,,備前市日生町寒河字中日生,34.75054,134.31465,世界,170,,,○,,,,,,,,,,,,,,打製石斧？,,,,,,,和気郡史刊行会1981b/和気郡史刊行会1981a,B330105,B330104,,,,,採集資料,20050706,小嶋善邦,20171105,小嶋善邦,1
330144,,鴻島長坂遺跡,,,,Kounoshimanagasaka,,備前市日生町日生,34.70244,134.25351,世界,5,,,,,,,,,,,○,,,,,,,,,,,,,和気郡史刊行会1981b/和気郡史刊行会1981a,B330105,B330104,,,,,採集資料,20050706,小嶋善邦,20171105,小嶋善邦,1
330145,,鹿久居島ゲンジ東遺跡,,,,Kakuijimagenjinishi,,備前市日生町日生,34.71292,134.28708,世界,1,,,,,,,,,,,,,,,,,剥片,,,,,,,岡山県教育委員会2003g,B330034,,,,,,採集資料,20050706,小嶋善邦,20171105,小嶋善邦,1
330146,,鹿久居島貝ノ前遺跡,,,,Kakuijimakinomae,,備前市日生町日生,34.717222,134.338611,世界,1,,,○,,,,,,,,○,,,,,,,,,,,,,和気郡史刊行会1981b/和気郡史刊行会1981a,B330105,B330104,,,,,採集資料,20050706,小嶋善邦,20171105,小嶋善邦,1
330147,,鹿久居島中泊り遺跡,,,,Kakuijimanakatomari,,備前市日生町日生,34.713056,134.301111,世界,1,,,,,,○,,,,,○,,,,,,,,,,,,,和気郡史刊行会1981b/和気郡史刊行会1981a,B330105,B330104,,,,,採集資料,20050706,小嶋善邦,20171105,小嶋善邦,1
330148,,神道遺跡,,,,Shindou,,瀬戸内市牛窓町神道,34.627222,134.156944,世界,166,,,,,,,,,,,,,,,,,剥片,,,,,,,牛窓町史編纂委員会1997,B330006,,,,,,採集資料,20050707,小嶋善邦,20171105,小嶋善邦,1
330149,,長谷遺跡,,,,Nagatani,,瀬戸内市牛窓町鹿忍長谷,34.6033,134.11883,世界,140,,,,,,,,,,○,,,,,,,,,,,,,,牛窓町史編纂委員会1997,B330006,,,,,,採集資料,20050707,小嶋善邦,20171105,小嶋善邦,1
330150,,前島網代崎遺跡,第１地点,,,Maejiroajirozaki,Loc.1,瀬戸内市牛窓町牛窓網代崎,34.61414,134.19773,世界,50,,,,,,,,,,,○,,,,,,剥片,,,,,,,牛窓町史編纂委員会1997,B330006,,,,,,採集資料,20050707,小嶋善邦,20171105,小嶋善邦,1
330151,,前島網代崎遺跡,第２地点,,,Maejiroajirozaki,Loc.2,瀬戸内市牛窓町牛窓網代崎,34.61613,134.20117,世界,10,,,,,,,,,,,,,,,,,石核,,,,,,,牛窓町史編纂委員会1997,B330006,,,,,,採集資料,20050707,小嶋善邦,20171105,小嶋善邦,1
330152,,前島網代崎遺跡,第３地点,,,Maejiroajirozaki,Loc.3,瀬戸内市牛窓町牛窓網代崎,34.6158,134.19997,世界,20,,,,,,,,,,,,,,,,,原石？,,,,,,旧石器～弥生のいずれかの時代,牛窓町史編纂委員会1997,B330006,,,,,,採集資料,20050707,小嶋善邦,20171105,小嶋善邦,1
330153,,青島遺跡,第１地点,,,Aoshima,Loc.1,瀬戸内市牛窓町牛窓青島,34.61211,134.20873,世界,20,○,,,,,,,,,,,,,,,,加工痕のある剥片,,,,,,,牛窓町史編纂委員会1997,B330006,,,,,,採集資料,20050707,小嶋善邦,20171105,小嶋善邦,1
330154,,黄島遺跡,第３地点,,,Kishima,Loc.3,瀬戸内市牛窓町牛窓黄島,34.59817,134.1958,世界,40,○,,,,,,,,,,,,,,,,,,,,,,,牛窓町史編纂委員会1997,B330006,,,,,,採集資料,20050707,小嶋善邦,20171105,小嶋善邦,1
330155,,黒島貝塚,,下層,,Kuroshima,,瀬戸内市牛窓町牛窓黒島,34.5975,134.158889,世界,33,,,,,,,,,,,,,,,,,楔形石器,,,,,,貝塚下層中出土,牛窓町史編纂委員会1997,B330006,,,,,,発掘調査,20050707,小嶋善邦,20171105,小嶋善邦,1
330156,,広高山遺跡,,,,Hirotakayama,,瀬戸内市長船町西須恵字広高山,34.676389,134.145556,世界,166,○,,,,○,○,,,,,○,,,,,,,,,,,,,長船町史編纂委員会1998/安川豊史1985,B330079,B330101,,,,,発掘調査,20050708,小嶋善邦,20171105,小嶋善邦,1
330157,,西谷遺跡,,包含層,,Nishidani,,瀬戸内市長船町西須恵字西谷,34.681667,134.135,世界,12,○,,,,,,,,,,,,,,,,,,,,,,,長船町史編纂委員会1998/岡山県長船町教育委員会1985,B330079,B330008,,,,,発掘調査,20050708,小嶋善邦,20171105,小嶋善邦,1
330158,,丸山遺跡,,包含層,,Maruyama,,瀬戸内市長船町服部字丸山,34.71,134.109722,世界,6,○,,,,,,,,,,,,,,,,,,,,,,,長船町史編纂委員会1998/岡山県長船町教育委員会1997,B330079,B330009,,,,,発掘調査,20050708,小嶋善邦,20171105,小嶋善邦,1
330159,,坂田遺跡,第２地点,包含層,,Sakata,Loc.2,備前市鶴海字坂田,34.711389,134.228611,世界,30,,,,,,○,,,,,,,,,,,,,,,,,,備前市教育委員会1974/和気郡史刊行会1981ａ/和気郡史刊行会1981ｂ,B330089,B330104,B330105,,,,発掘調査,20050708,小嶋善邦,20171105,小嶋善邦,1
330160,,亀井戸遺跡,,包含層,,Kameido haiji,,備前市佐山亀井戸,34.690556,134.168056,世界,32,○,,,,,,,,,,,,,,,,翼状剥片,,,,,,旧名：亀井戸廃寺,備前市教育委員会1984,B330090,,,,,,発掘調査,20050708,小嶋善邦,20171105,小嶋善邦,1
330161,,下山田梶ヶ鼻遺跡,,包含層,,Shimoyamadakajigabana,,瀬戸内市邑久町下山田字梶ヶ鼻,34.653056,134.105,世界,1,○,,,,,,,,,,,,,,,,,,,,,,,岡山県教育委員会1988a/邑久町史編纂委員会2006/邑久町史編纂委員会2009,B330019,B330107,B330130,,,,発掘調査,20050708,小嶋善邦,20171105,小嶋善邦,1
330164,野原遺跡群,野原遺跡,早風Ａ地点,,Nobara,Nobara,Loc.Hayakaze A,新見市神郷高瀬字野原,35.098889,133.351389,世界,530,○,○,○,,,,,○,,,○,○,○,○,○,○,楔形石器／投弾,,○,○,○,,,岡山県教育委員会1979b/岡山県教育委員会1979c/平井勝1984/平井勝1986/平井勝1987a,B330014,B330013,B330133,B330142,B330149,,発掘調査,20050705,小嶋善邦,20171105,小嶋善邦,1
330165,,天神坂遺跡,,包含層,,Tenjinzaka,,岡山市北区大内田字天神坂,34.6275,133.83971,世界,83,○,,,,,,,,,,,,,,,,,,,,,,,岡山県教育委員会1983,B330017,,,,,,発掘調査,20050705,小嶋善邦,20171105,小嶋善邦,1
330166,,大田茶屋遺跡,,,,Ootachaya,,津山市大田字茶屋,35.091944,134.000556,世界,125,,,,,,,,○,,,,,,,,,,,,,,,,岡山県教育委員会1998a,B330025,,,,,,発掘調査,20050901,新谷俊典,,,
330167,,稲荷遺跡,,,,Inari,,津山市草加部字稲荷,35.095556,134.074167,世界,130,,,,,,,,,,○,,,,,,,石核,,,,,,,津山市教育委員会1990,B330082,,,,,,発掘調査,20050901,新谷俊典,,,
330168,,大開遺跡,,,,Oobiraki,,津山市二宮字大開,35.06687,133.96147,世界,135,○,,,,,,,,,,,,,,,,,,,,,,,津山市教育委員会1994b/津山市教育委員会1998,B330084,B330126,,,,,発掘調査,20050901,新谷俊典,20171105,小嶋善邦,1
330169,,押入西遺跡,,,,Oshiirenishi,,津山市押入,35.06999,134.03626,世界,130,○,,,,,,,,,,,,,,,,,,,,,,,津山市教育委員会1982/津山市教育委員会1987/津山市教育委員会1998,B330080,B330125,B330126,,,,発掘調査,20050901,新谷俊典,20171105,小嶋善邦,1
330170,,天神原遺跡,,,,Tenjinbara,,津山市河辺字天神原,35.062,134.05225,世界,150,○,,,,,,,,,,,,,,,,,,,,,,,岡山県教育委員会1975a/津山市教育委員会1998,B330010,B330126,,,,,発掘調査,20050901,新谷俊典,20171105,小嶋善邦,1
330171,,日上畝山古墳群,,,,Hikamiuneyama kofungun,,津山市日上字畝山南,35.051389,134.028889,世界,105,○,,,,,,,,,,,,,,,,,,,,,,,津山市教育委員会2007,B330109,,,,,,発掘調査,20050901,新谷俊典,,,
330172,,崩レ塚遺跡,,,,Kuzurezuka,,津山市金井字崩レ塚,35.03878,134.05347,世界,130,○,,,,,,,,,,,,,,,,,,,,,,,津山市教育委員会1989,B330081,,,,,,発掘調査,20050901,新谷俊典,20171105,小嶋善邦,1
330173,,別所谷遺跡,,,,Besshodani,,津山市金井字別所谷,35.041389,134.054722,世界,130,,,,,,,,,,,,,,,,,石核/翼状剥片,,,,,,,津山市教育委員会1994a,B330083,,,,,,発掘調査,20050901,新谷俊典,,,
330174,,黒岩高原,,,,Kuroiwa kougen,,津山市阿波,35.275278,134.133889,世界,930,,,,,,,,,,,,,,,,,,,,,,,遺物なし,岡山県教育委員会2003f,B330031,,,,,,分布調査,20050901,新谷俊典,,,
330175,,領家遺跡,,,,Ryouke,,津山市領家,35.05654,133.92027,世界,130,,,,,,,,,○,,,,,,,,,,,,,,,岡山県教育委員会1975ｂ,B330011,,,,,,発掘調査,20050901,新谷俊典,20171105,小嶋善邦,1
330176,,宮尾遺跡,,,,Miyao,,津山市宮尾,35.05774,133.92578,世界,125,○,,,,,,,,,,,,,,,,,,,,,,,岡山県教育委員会1973/岡田博・小嶋善邦・米田克彦2002,B330110,B330007,,,,,発掘調査,20050901,新谷俊典,20171105,小嶋善邦,1
330177,,白橋逧遺跡,,,,Shirahashisako,,苫田郡鏡野町養野,35.187778,133.920556,世界,380,,,,,,,,,,,△,,,,,,,,,,,,,岡山県教育委員会2003e,B330029,,,,,,採集資料,20050901,新谷俊典,,,
330178,恩原遺跡群,恩原１遺跡,,R文化層,Onbara,Onbara,Loc.1,苫田郡鏡野町上斎原字恩原,35.30605,133.99109,世界,730,○,,,,,,,,,,,,,,,,石核/石刃,,○,,,炉址/砂礫堆,,稲田孝司1986a/稲田孝司1986ｂ/稲田孝司1989/稲田孝司1996/稲田孝司2001/稲田孝司2009/平井勝1987ｂ,B330001,B330140,B330002,B330004,B330146,B330144,発掘調査,20050901,新谷俊典,20180422,小嶋善邦,1
330179,恩原遺跡群,恩原１遺跡,,O文化層,Onbara,Onbara,Loc.1,苫田郡鏡野町上斎原字恩原,35.30605,133.99109,世界,730,○,,,,,,,,,,,,,,,,石核,,○,,○,,,稲田孝司1986a/稲田孝司1996/稲田孝司2001/稲田孝司2002/稲田孝司2009/平井勝1987ｂ,B330001,B330004,B330146,B330005,B330144,B330150,発掘調査,20050901,新谷俊典,20180422,小嶋善邦,1
330180,恩原遺跡群,恩原１遺跡,,S文化層,Onbara,Onbara,Loc.1,苫田郡鏡野町上斎原字恩原,35.30605,133.99109,世界,730,○,,,,,,,,,,○,,,,,,,,○,,,,,稲田孝司1986a/稲田孝司1986b/稲田孝司1996/稲田孝司2001/稲田孝司2009/平井勝1987ｂ,B330001,B330140,B330004,B330146,B330144,B330150,発掘調査,20050901,新谷俊典,20180422,小嶋善邦,1
330181,恩原遺跡群,恩原１遺跡,,M文化層,Onbara,Onbara,Loc.1,苫田郡鏡野町上斎原字恩原,35.30605,133.99109,世界,730,,,,,,○,,○,,,○,○,,,,,加工痕のある剥片/使用痕のある剥片,,○,,,,,稲田孝司1986a/稲田孝司1996/光石鳴巳2003/稲田孝司2001/稲田孝司2009/平井勝1987ｂ,B330001,B330004,B330099,B330146,B330144,B330150,発掘調査,20050901,新谷俊典,20180422,小嶋善邦,1
330182,恩原遺跡群,恩原２遺跡,,R文化層,Onbara,Onbara,Loc.2,苫田郡鏡野町上斎原字恩原,35.30572,133.99037,世界,730,,,,,,,,,,,,,,,,,加工痕のある剥片/粗割礫/原石/石核/剥片/砕片,,○,,,,,稲田孝司1986a/稲田孝司1996/稲田孝司2001/平井勝1987ｂ,B330001,B330004,B330146,B330150,,,発掘調査,20050901,新谷俊典,20180422,小嶋善邦,1
330183,恩原遺跡群,恩原２遺跡,,S文化層,Onbara,Onbara,Loc.2,苫田郡鏡野町上斎原字恩原,35.30572,133.99037,世界,730,○,,,,,,,,,,○,,,○,,,石刃/加工痕のある剥片/使用痕のある剥片/楔形石器/石核/粗割礫/原石/剥片/砕片,,○,△,,,,稲田孝司1986a/稲田孝司1996/稲田孝司2001/平井勝1987ｂ,B330001,B330004,B330146,B330150,,,発掘調査,20050901,新谷俊典,20180422,小嶋善邦,1
330184,恩原遺跡群,恩原２遺跡,,M文化層,Onbara,Onbara,Loc.2,苫田郡鏡野町上斎原字恩原,35.30572,133.99037,世界,730,,,,,,,,○,,,○,○,,,,,加工痕のある剥片/使用痕のある剥片/石核/剥片/砕片,,○,,,,,稲田孝司1986a/稲田孝司1996/稲田孝司2001/平井勝1987ｂ,B330001,B330004,B330146,B330150,,,発掘調査,20050901,新谷俊典,20180422,小嶋善邦,1
330185,恩原遺跡群,恩原３遺跡,,,Onbara,Onbara,Loc.3,苫田郡鏡野町上斎原字恩原,35.30495,133.98998,世界,730,○,,,,,,,,,,○,,,,,,楔形石器削片/石核/剥片,,,,,,,稲田孝司1996/脇山康・安川豊史2000,B330004,B330123,,,,,採集資料,20050901,新谷俊典,20180422,小嶋善邦,1
330186,恩原遺跡群,恩原４遺跡,,,Onbara,Onbara,Loc.4,苫田郡鏡野町上斎原字恩原,35.30055,133.98908,世界,730,,,,,,,,,,,,,,,,,石核/剥片,,,,,,,稲田孝司1996,B330004,,,,,,採集資料,20050901,新谷俊典,20180422,小嶋善邦,1
330187,恩原遺跡群,恩原５遺跡,,,Onbara,Onbara,Loc.5,苫田郡鏡野町上斎原字恩原,35.30192,133.98704,世界,730,,,,,,,,,,,,,,,,,剥片,,,,,,,稲田孝司1996,B330004,,,,,,採集資料,20050901,新谷俊典,20180422,小嶋善邦,1
330188,恩原遺跡群,恩原６遺跡,,,Onbara,Onbara,Loc.6,苫田郡鏡野町上斎原字恩原,35.30265,133.98655,世界,730,,,,,,,,,,,△,,,,,,楔形石器削片/加工痕のある剥片/原石/剥片,,,,,,,稲田孝司1996,B330004,,,,,,採集資料,20050901,新谷俊典,20180422,小嶋善邦,1
330189,恩原遺跡群,恩原７遺跡,,,Onbara,Onbara,Loc.7,苫田郡鏡野町上斎原字恩原,35.30627,133.98925,世界,730,○,,,,,,,,,,,,,,,,楔形石器削片/石核/剥片,,,,,,,稲田孝司1996,B330004,,,,,,採集資料,20050901,新谷俊典,20180422,小嶋善邦,1
330190,恩原遺跡群,恩原８遺跡,,,Onbara,Onbara,Loc.8,苫田郡鏡野町上斎原字恩原,35.31553,133.9941,世界,750,,,,,,,,,,,,,,,,,楔形石器/剥片,,,,,,,稲田孝司1996,B330004,,,,,,採集資料,20050901,新谷俊典,20171105,小嶋善邦こ,1
330191,恩原遺跡群,恩原９遺跡,,,Onbara,Onbara,Loc.9,苫田郡鏡野町上斎原字恩原,35.30496,133.9927,世界,740,,,,,,,,,,,,,,,,,剥片,,,,,,,稲田孝司1996,B330004,,,,,,採集資料,20050901,新谷俊典,20180422,小嶋善邦,1
330192,恩原遺跡群,恩原１０遺跡,,,Onbara,Onbara,Loc.10,苫田郡鏡野町上斎原字恩原,35.30467,133.99359,世界,740,,,,,,,,,,,,,,,,,剥片/砕片,,,,,,,稲田孝司1996,B330004,,,,,,採集資料,20050901,新谷俊典,20180422,小嶋善邦,1
330193,,寺屋敷遺跡,,,,Terayashiki,,苫田郡鏡野町下ノ郷字寺屋敷,35.275,133.924167,世界,500,,,,,,,,,,,,,,,,,剥片,,,,,,,岡山県教育委員会2003e,B330029,,,,,,採集資料,20050901,新谷俊典,,,
330194,,高屋B遺跡,,,,Takaya B,,真庭市高屋,35.05106,133.74457,世界,160,,,,,,,,,,○,,,,,,,,,,,,,,岡山県教育委員会1981b/落合町教育委員会1983,B330016,B330143,,,,,発掘調査,20050901,新谷俊典,20171105,小嶋善邦,1
330195,,郡遺跡,,,,Koori,,真庭市鹿田字須之内,35.000278,133.729444,世界,130,,,,,,,,,,,○,,,,,,石核,,,,,,,落合町教育委員会2004,B330038,,,,,,発掘調査,20050901,新谷俊典,,,
330196,,上の原A遺跡,,,,Uenohara A,,真庭市小童谷字湯川,35.218056,133.713889,世界,400,,,,,,,,○,,,,,,,,,,,,,,,,岡山県教育委員会2003a,B330027,,,,,,採集資料,20050901,新谷俊典,,,
330197,,田和D遺跡,,,,Tawa D,,真庭市小童谷字田和,35.213889,133.700833,世界,390,,,,,,,,,,,,,,,,,剥片,,,,,,,岡山県教育委員会2003a,B330027,,,,,,採集資料,20050901,新谷俊典,,,
330198,,ヒロダン・小坂向遺跡,,,,Hirodan-Kosakamukai,,真庭市見明戸,35.184167,133.666111,世界,490,,,,,,,,,,,△,,,,,,,,,,,,,岡山県教育委員会2003i,B330033,,,,,,発掘調査,20050901,新谷俊典,,,
330199,,宇田遺跡,,,,Uda,,真庭市蒜山上長田字上中野,35.295556,133.705,世界,460,,,,,,,,,,,,,,,,,剥片,,,,,,,岡山県教育委員会2003a,B330027,,,,,,採集資料,20050901,新谷俊典,,,
330200,,竜頭遺跡,,,,Ryuzu,,真庭市蒜山上長田字龍頭,35.291944,133.706111,世界,440,,,,,○,,,,,,,,,,,,,,,,,,,鎌木義昌・小林博昭1987/小林博昭1987,B330046,B330059,,,,,発掘調査,20050901,新谷俊典,,,
330201,,道目木遺跡,,,,Doumeki,,真庭市蒜山上長田字道目木,35.292778,133.709444,世界,450,,,,,,,,,,,,,,,,,剥片,,,,,,,白石純1994,B330070,,,,,,採集資料,20050901,新谷俊典,,,
330202,,笹畝遺跡,第１地点,,,Sasaune,Loc.1,真庭市蒜山上長田字笹畝,35.303333,133.713056,世界,480,○,,,,,,,,,,○,,,,,,石核/剥片,,○,○,,,,小林博昭1987/小林博昭1988/白石純・小野伸1995,B330147,B330060,B330071,,,,発掘調査,20050901,新谷俊典,,,
330203,,笹畝遺跡,第２地点,,,Sasaune,Loc.2,真庭市蒜山上長田字笹畝,35.300278,133.709722,世界,460,○,,,○,○,,,,,,○,○,,,,,錐/ノッチ/尖頭状石器/石核/剥片,,○,○,,,,白石純1988/白石純1990/白石純・小野伸1995/白石純・小林博昭1998,B330068,B330069,B330071,B330072,,,発掘調査,20050901,新谷俊典,,,
330204,,笹畝遺跡,第３地点,,,Sasaune,Loc.3,真庭市蒜山上長田字笹畝,35.299444,133.708333,世界,460,,,,,,,,,,,,,,,,,石核/剥片,,,,,,,白石純1994,B330070,,,,,,採集資料,20050901,新谷俊典,,,
330205,,戸谷遺跡,第１地点,Ⅱ～Ⅲ層,,Todani,Loc.1,真庭市蒜山下長田字戸谷,35.30879,133.71874,世界,480,○,,,,,△,,,,,○,,,,,,石核/剥片,,○,○,,,,白石純1983/鎌木義昌・小林博昭1986a/小林博昭1987a/小林博昭1987b,B330073,B330044,B330059,B330147,,,発掘調査,20050901,新谷俊典,20171105,小嶋善邦,1
330206,,戸谷遺跡,第１地点,Ⅹ層,,Todani,Loc.1,真庭市蒜山下長田字戸谷,35.30879,133.71874,世界,480,○,○,○,,,,,,,,○,○,,○,,,錐/ノッチ/楔形石器/石核/粗割礫/剥片,,○,○,,,炭素年代23400+-2500ｙｒB.P.,鎌木義昌・小林博昭1986a/小林博昭1987a/小林博昭1987b,B330044,B330059,B330147,,,,発掘調査,20050901,新谷俊典,20171105,小嶋善邦,1
330207,,戸谷遺跡,第２地点,,,Todani,Loc.2,真庭市蒜山下長田字戸谷,35.307222,133.720278,世界,470,○,,,,○,,,○,,,○,,,,,,,,,,,遺構なし,,白石純1983/鎌木義昌・小林博昭1986a/光石鳴巳2003,B330073,B330044,B330099,,,,発掘調査,20050901,新谷俊典,20171125,小嶋善邦,1
330208,,戸谷遺跡,第４地点,Ⅹ層,,Todani,Loc.4,真庭市蒜山下長田字戸谷,35.3025,133.723611,世界,450,○,,○,,,○,,,,,○,,,,,,ノッチ/石核/剥片,,○,○,,,,白石純1983/鎌木義昌・小林博昭1986a/小林博昭1987a/小林博昭1987b,B330073,B330044,,,,,発掘調査,20050901,新谷俊典,,,
330209,,戸谷遺跡,第４地点,最下層,,Todani,Loc.4,真庭市蒜山下長田字戸谷,35.3025,133.723611,世界,450,,,,,,,,,,,,,,,,○,剥片,,,,,,,鎌木義昌・小林博昭1986a/小林博昭1987a/小林博昭1987b,B330044,B330059,B330147,,,,発掘調査,20050901,新谷俊典,,,
330210,,戸谷遺跡,第５地点,Ⅹ層,,Todani,Loc.5,真庭市蒜山下長田字戸谷,35.3025,133.723611,世界,450,○,,○,,,,,,,,○,,,,,,楔形石器/石核/粗割礫/剥片,,○,○,,,,鎌木義昌・小林博昭1984/鎌木義昌・小林博昭1986a/小林博昭1987a/小林博昭1987b,B330148,B330044,B330059,B330147,,,発掘調査,20050901,新谷俊典,,,
330211,,戸谷遺跡,第５地点,礫層,,Todani,Loc.5,真庭市蒜山下長田字戸谷,35.3025,133.723611,世界,450,,,,,,,,,,,,,,,,○,剥片,,,,,,,鎌木義昌・小林博昭1984/鎌木義昌・小林博昭1986a,B330148,B330044,B330059,,,,発掘調査,20050901,新谷俊典,,,
330212,,戸谷遺跡,第６地点,,,Todani,Loc.6,真庭市蒜山下長田字戸谷,35.301111,133.726111,世界,450,,,,,,,,,,,,,,,,,石核/剥片,,,,,,,岡山県教育委員会2003a,B330027,,,,,,採集資料,20050901,新谷俊典,,,
330213,,牧野遺跡,第１地点,,,Makino,Loc.1,真庭市蒜山下長田字牧野,35.301111,133.722222,世界,460,,,,,,,,,,,,,,,,,剥片,,,,,,,白石純1984a,B330073,,,,,,採集資料,20050901,新谷俊典,,,
330214,,牧野遺跡,第２地点,,,Makino,Loc.2,真庭市蒜山下長田字牧野,35.301944,133.721667,世界,460,,,,,,,,,,,,,,,,,旧石器,,,,,,,岡山県教育委員会2003a,B330027,,,,,,採集資料,20050901,新谷俊典,,,
330215,,牧野遺跡,第３地点,,,Makino,Loc.3,真庭市蒜山下長田字牧野,35.301944,133.722778,世界,460,,,,,,○,,,,,△,,,,,,剥片,,,,,,,白石純1983,B330073,,,,,,採集資料,20050901,新谷俊典,,,
330216,,牧野遺跡,第４地点,,,Makino,Loc.4,真庭市蒜山下長田字牧野,35.30126,133.72349,世界,455,,,,,,,,○,,,,,,,,,石核/原石/剥片,,,,,,,白石純1984a/白石純・小野伸1995/新谷俊典・美甘隆夫2004,B330073,B330071,B330087,,,,採集資料,20050901,新谷俊典,20171105,小嶋善邦,1
330217,,牧野遺跡,第５地点,,,Makino,Loc.5,真庭市蒜山下長田字牧野,35.305278,133.72,世界,470,○,,,,,,,,,,○,,,,,,楔形石器/石核/剥片,,○,○,,,,白石純1984c/鎌木義昌・小林博昭1986b/小林博昭1987a/小林博昭1988,B330073,B330045,B330059,B330060,,,発掘調査,20050901,新谷俊典,20171125,小嶋善邦,1
330218,,東遺跡,,,,Higashi,,真庭市蒜山下長田字中野,35.294722,133.732222,世界,430,,,,,,○,,○,○,,○,○,,○,,○,楔形石器/石核/剥片,,○,△,,,,白石純1984c/白石純1990/白石純・小林博昭2001/蒜山教育事務組合教育委員会2003/新谷俊典2004,B330073,B330069,B330073,B330091,B330086,,発掘調査,20050901,新谷俊典,,,
330219,,東下遺跡,,,,Higashishita,,真庭市蒜山下長田字東,35.300556,133.735278,世界,440,○,,,,,△,,○,,,△,,,,,,翼状剥片/石核/剥片,,,,,,,岡山県教育委員会2003a,B330027,,,,,,採集資料,20050901,新谷俊典,,,
330220,,上野遺跡,,,,Ueno,,真庭市蒜山下長田字ウエノ,35.29349,133.73652,世界,430,,,,,,,,,,,,,,,,,石核/剥片,,○,,,,環状ブロックの可能性有り,岡山県教育委員会1995b,B330024,,,,,,発掘調査,20050901,新谷俊典,20171105,小嶋善邦,1
330221,,上野中遺跡,第１地点,,,Uenonaka,Loc.1,真庭市蒜山下長田字ウエノ,35.293056,133.735833,世界,420,,,,,,,,,,,,,,,,,石核/剥片,,,,,,,白石純1983,B330073,,,,,,採集資料,20050901,新谷俊典,,,
330222,,上野中遺跡,第２地点,,,Uenonaka,Loc.2,真庭市蒜山下長田字ウエノ,35.294444,133.7375,世界,450,,,,,○,,,,,,,,,,,,剥片,,,,,,,白石純1994,B330070,,,,,,採集資料,20050901,新谷俊典,,,
330223,,原林遺跡,,,,Harahayashi,,真庭市蒜山下長田字原林,35.28468,133.74176,世界,415,,,,,,,,,,,,,,,,,剥片,,,,,,,白石純1994,B330070,,,,,,採集資料,20050901,新谷俊典,20171105,小嶋善邦,1
330224,,水別遺跡,,,,Mizuwakare,,真庭市蒜山下長田字水別,35.28321,133.74501,世界,445,,,,,,,,,,,,,,,,,剥片,,,,,遺構なし,,岡山県教育委員会1998b,B330026,,,,,,発掘調査,20050901,新谷俊典,20171105,小嶋善邦,1
330225,,柴畝遺跡,,,,Shibaune,,真庭市蒜山下見字柴畝,35.272778,133.72,世界,430,,,,,,,,,,,,,,,,,石核/剥片,,,,,,,岡山県教育委員会2003a,B330027,,,,,,採集資料,20050901,新谷俊典,,,
330226,,フコウ原遺跡,,,,Fukoubara,,真庭市蒜山別所,35.295833,133.787778,世界,500,○,,,,,,,,,,○,,,,,,石核/剥片/砕片,,○,,,,,白石純1984ｂ/小林博昭1987/稲田孝司1990/白石純1999,B330073,B330046,B330003,B330152,,,発掘調査,20050901,新谷俊典,,,
330227,,小林河原遺跡,,,,Kobayashigawara,,真庭市蒜山下和,35.261111,133.7925,世界,560,,○,,,,,,,,,,,,,,,,,○,,,,,鎌木義昌・小林博昭1985/白石純1985/小林博昭1987a/白石純1999,B330043,B330067,B330059,B330152,,,発掘調査,20050901,新谷俊典,,,
330228,,ニタ又仙遺跡,,,,Nitamatayama,,真庭市蒜山上福田字ニタ又仙,35.316389,133.613056,世界,580,,,,,,,,,,,,,,,,,剥片,,,,,,,岡山県教育委員会2003a,B330027,,,,,,採集資料,20050901,新谷俊典,,,
330229,,中山西遺跡,,,,Nakayamanishi,,真庭市蒜山西茅部字中山,35.2719,133.61739,世界,520,○,,,,,,,,,,,,,,,,加工痕のある剥片/使用痕のある剥片/石核/剥片,,○,,○,,環状ブロック,岡山県教育委員会1995a,B330023,,,,,,発掘調査,20050901,新谷俊典,20171105,小嶋善邦,1
330230,,城山東遺跡,,,,Shiroyamahigashi,,真庭市蒜山西茅部,35.27267,133.62094,世界,500,○,,,,,,,,,,,,,,,,石核/剥片,,○,,○,,,岡山県教育委員会1995a,B330023,,,,,,発掘調査,20050901,新谷俊典,20171105,小嶋善邦,1
330231,,下郷原田代遺跡,第２地点,,,Shimogoubaratashiro,Loc.2,真庭市蒜山西茅部字下郷原,35.26074,133.64269,世界,530,○,,○,,,,,,,,○,,,,,,石核/剥片,,○,,○,,,岡山県教育委員会1995a,B330023,,,,,,発掘調査,20050901,新谷俊典,20171105,小嶋善邦,1
330232,,才ヶ乢遺跡,,,,Saigatawa,,真庭市蒜山西茅部字才ヶ乢,35.270278,133.643611,世界,480,○,,,,,,,,,,,,,,,,,,,,,,,白石純1983,B330073,,,,,,採集資料,20050901,新谷俊典,,,
330233,,野田原遺跡,,,,Notabara,,真庭市蒜山西茅部字野田原,35.273333,133.640278,世界,480,,,,,,,,,○,,,,,,,,,,,,,,,安川豊史1987,B330151,,,,,,採集資料,20050901,新谷俊典,,,
330234,,粟住遺跡,,,,Awazumi,,真庭市蒜山東茅部,35.255833,133.685,世界,490,,,○,,,,,,,,,,,,,,楔形石器/石核/剥片,,,,,,,白石純1994,B330070,,,,,,採集資料,20050901,新谷俊典,,,
330235,,北方,,,,Kitagata,,玉野市北方,34.567222,134.02,世界,35,,,,,,,,,,,,,,,,,,,,,,,遺跡地図のみ・遺跡名不明・器種不明,岡山県教育委員会2003c,B330030,,,,,,採集資料,,西田和浩,,,
330236,,番田,,,,Banda,,玉野市番田,34.5672,134.0256,世界,31,,,,,,,,,,,,,,,,,,,,,,,遺跡地図のみ・遺跡名不明・器種不明,岡山県教育委員会2003c,B330030,,,,,,採集資料,,西田和浩,20171105,小嶋善邦,1
330237,,戸尻鼻遺跡,,,,Tojiribana,,玉野市胸上・石島・東戸尻,34.50617,134.02259,世界,20,,,,,,,,,,,,,,,,,,,,,,,器種不明,岡山県教育委員会2003c,B330030,,,,,,採集資料,,西田和浩,20171105,小嶋善邦,1
330238,,胸上・石島,,,,Muneage-ishima,,玉野市胸上・石島,34.5025,134.0125,世界,30,,,,,,,,,,,,,,,,,,,,,,,遺跡地図のみ・遺跡名不明・器種不明,岡山県教育委員会2003c,B330030,,,,,,採集資料,,西田和浩,,,
330239,,王子が岳遺跡,,,,Ojigadake,,玉野市渋川,34.46022,133.88644,世界,180,○,,,,,,,○,,,,,,,,,,,,,,,県遺跡地図では、矢出山遺跡を含む一帯を王子が岳遺跡とする,玉野市史編纂委員会1970／倉敷埋蔵文化財センター1995/岡山県教育委員会2003c,B330111,B330053,,,,,採集資料,,西田和浩,20171105,小嶋善邦,1
330240,,宮田山遺跡,,,,Miyatayama,,玉野市渋川,34.454167,133.908333,世界,95,○,,,,○,○,,,,,○,,,,,,石核・剥片,,,,,,岡山県立博物館保管,西川・杉野1959/玉野市史編纂委員会1970/西川宏1986/倉敷埋蔵文化財センター1995/岡山県教育委員会2003c,B330112,B330111,B330138,B330053,,,採集資料,,西田和浩,,,
330241,,宮山遺跡,,,,Miyayama,,玉野市日比,34.453611,133.918611,世界,100,○,,,,,○,,○,,,,,,,,,,,,,,,,玉野市史編纂委員会1970/岡山県教育委員会2003c,B330111,B330030,,,,,採集資料,,西田和浩,,,
330242,,向日比遺跡,,,,Mukaihibi,,玉野市向日比,34.456389,133.940278,世界,30,○,,,,,,,,,,,,,,,,,,,,,,,玉野市史編纂委員会1970/倉敷埋蔵文化財センター1995/岡山県教育委員会2003c,B330111,B330053,,,,,採集資料,,西田和浩,,,
330243,,高辺山遺跡,,,,Takabeyama,,玉野市築港,34.497222,133.958889,世界,25,○,,,,,○,,,,,,,,,,,,,,,,,,玉野市史編纂委員会1970/岡山県教育委員会2003c,B330111,B330030,,,,,採集資料,,西田和浩,,,
330244,,尻海才ノ峠遺跡,,,,Sirimisainotao,,瀬戸内市邑久町尻見字才ノ峠,34.653611,134.151944,世界,20,○,,,,,,,,,,,,,,,,,,,,,,,邑久町史編纂委員会2006/邑久町史編纂委員会2009,B330107,B330030,,,,,採集資料,20171115,小嶋善邦,,,
330245,,二野遺跡,,包含層,,Nino,,新見市哲西町大字矢田字二野,34.944167,133.328889,世界,375,○,,,,,○,,,,,○,,,,,,,,,,,,,岡山県教育委員会1977,B330131,,,,,,発掘調査,20171115,小嶋善邦,,,
330246,,窪木薬師遺跡,,,,Kubokiyakusi,,総社市窪木薬師,34.6825,133.788889,世界,7,○,,,,,,,,,,,,,,,,,,,,,,,岡山県教育委員会1993ｃ,B330132,,,,,,発掘調査,20171115,小嶋善邦,,,
330247,,出崎遺跡,Ｂ地点,,,Desaki,Loc.Ｂ,玉野市出崎,34.516944,134.001667,世界,1,○,,,,,,,,,○,,,,,,,,,,,,,,杉野文一1987／平井勝・保田義治1987,B330112,,,,,,,20171115,小嶋善邦,,,
330248,,砂山城跡,,,,Sunayama,,玉野市砂山,34.55215,133.97201,世界,96,,,,,,,,,,,○,,,,,,,,,,,,,杉野文一1987,B330112,,,,,,採集資料,20171115,小嶋善邦,,,
330249,,楢原古墳群,,,,Narabara,,岡山市東区楢原,34.698333,134.060278,世界,70,○,,,,,,,,,,,,,,,,剥片/砕片,,,,,,,岡山県教育委員会1998ｃ,B330115,,,,,,発掘調査,20171115,小嶋善邦,,,
330250,,姥ヶ逧遺跡,,,,Ubagasako,,津山市市場,35.1202,134.12475,世界,220,,,,,,,,,,,○,,,,,,,,,,,,,岡山県教育委員会2010,B330116,,,,,,発掘調査,20171115,小嶋善邦,,,
330251,,田益田中遺跡,,,,Tamasutanaka,,岡山市田益,34.708056,133.899444,世界,10,○,,,,,,,,,,,,,,,,,,,,,,,岡山県教育委員会1999,B330117,,,,,,発掘調査,20171115,小嶋善邦,,,
330252,,大河内遺跡,,,,Ookouchi,,勝田郡勝央町黒土,35.025278,134.135556,世界,90,,,,,,,,,○,○,○,,,,,,剥片/加工痕のある剥片/石鏃,,,,,,,岡山県教育委員会2008b,B330120,,,,,,発掘調査,20171115,小嶋善邦,,,
330253,,尾崎遺跡,,,,Osaki,,美作市古町,35.12174,134.33173,世界,240,,,,,,,,,○,,,,,,,,,,,,,,,岡山県教育委員会2008a,B330119,,,,,,発掘調査,20171115,小嶋善邦,,,
330254,,天神鼻遺跡,,,,Tenjinbana,,笠岡市真鍋島,34.358056,133.572778,世界,50,○,,,,,,,,,,,,,,,,剥片,,,,,,,笠岡市教育委員会1988a,B330121,,,,,,確認調査,20171115,小嶋善邦,,,
330255,,真鍋城跡,,,,Manabejou,,笠岡市真鍋島,34.35851,133.58267,世界,80,○,,,,,,,,,,,,,,,,,,,,,,,笠岡市教育委員会1988b,B330122,,,,,,採集資料,20171115,小嶋善邦,,,
330256,野原遺跡群,野原遺跡,早風B地点,,,Nobara,HayakazeB,新見市神郷高瀬字野原,35.096111,133.351944,世界,530,,,,,,,,,,,,,,,,,石刃,,,,,,,岡山県教育委員会2003ｊ,B330134,,,,,,採集資料,20171115,小嶋善邦,,,
330257,野原遺跡群,野原遺跡,早風D地点,,,Nobara,HayakazeD,新見市神郷高瀬字野原,35.093333,133.350556,世界,530,,,,,,,,,,,,,,,,,,,,,,,,岡山県教育委員会2003ｊ,B330134,,,,,,採集資料,20171115,小嶋善邦,,,
330258,,備前国分寺跡,,,,Bizenkokubunji,,赤磐市下市,34.738611,133.999722,世界,20,,,,,,,,,,○,,,,,,,,,,,,,,岡山県赤磐市教育委員会2009/和気郡史刊行会1981a/和気郡史刊行会1981b,B330136,B330104,B330105,,,,発掘調査,20171115,小嶋善邦,,,
330259,,用木山遺跡,,,,Yougiyama,,赤磐市山陽１丁目・３丁目,34.7475,134.007222,世界,50,,,,,,,,,,○,,,,,,,,,,,,,弥生時代に鑿状石器に転用,安川豊史1987,B330151,,,,,,発掘調査,20171125,小嶋善邦,,,
330260,,出崎遺跡,第１地点,,,Desaki,Loc.1,玉野市出崎,34.519778,133.994639,世界,60,○,,,,,,,○,,,,,,,,,縦長剥片,,,,,,,小野・三好・白石・藤井・黒田2011,B330103,,,,,,採集資料,20171126,光石鳴巳,,,
330261,,出崎遺跡,第２地点,,,Desaki,Loc.2,玉野市出崎,34.515444,134.001278,世界,10,○,,,,,,,,,,,,,,,,スクレイパー,,,,,,,小野・三好・白石・藤井・黒田2011,B330103,,,,,,採集資料,20171126,光石鳴巳,,,
330262,,出崎遺跡,第３地点,,,Desaki,Loc.3,玉野市出崎,34.512222,134.003056,世界,10,○,,,,,○,,,,,,,,,,,,,,,,,県GISでは、出崎遺跡D地点,小野・三好・白石・藤井・黒田2011,B330103,,,,,,採集資料,20171126,光石鳴巳,,,
330263,,出崎遺跡,第４地点,,,Desaki,Loc.4,玉野市出崎,34.513917,134.003861,世界,40,○,,,,,,,,,,,,,,,,,,,,,,,小野・三好・白石・藤井・黒田2011,B330103,,,,,,採集資料,20171126,光石鳴巳,,,
330264,,出崎遺跡,第５地点,,,Desaki,Loc.5,玉野市出崎,34.524361,133.996583,世界,50,○,,,,,,,,,,,,,,,,,,,,,,,小野・三好・白石・藤井・黒田2011,B330103,,,,,,採集資料,20171126,光石鳴巳,,,
330265,,横田遺跡,,,,Yokota,,新見市哲西町矢田横田,34.92578,133.32392,世界,400,,,,,,○,,,,,,,,,,,,,,,,,,岡山県教育委員会1978,B330154,,,,,,発掘調査,20180323,小嶋善邦,,,
330266,,鍛冶屋谷遺跡,,,,Kajiyadani,,岡山市北区御津新庄陰地,34.8175,133.969444,世界,60,,,,,,,,,,○,,,,,,,,,,,,,,岡山県御津町教育委員会1998,B330155,,,,,,発掘調査,20180323,小嶋善邦,,,
330267,,賞田廃寺,,,,Syoudahaiji,,岡山市中区賞田,34.69833,133.96116,世界,10,,,,,,,,,,△,,,,,,,,,,,,,,岡山県教育委員会2008b,B330120,,,,,,発掘調査,20180323,小嶋善邦,,,
330268,,下道山南古墳,,,,Gedouyamaminamikohun,,津山市総社,35.08074,133.992516,世界,180,,,,,,,,,,,,,,,,○,,,,,,,,岡山県教育委員会1977,B330158,,,,,,発掘調査,20220530,小嶋善邦,,,
330269,,和田谷遺跡,,,,Wadadani,,浅口市鴨方町六条院,34.506882,133.573616,世界,30,,,,,,,,,,○,,,,,,,,,,,,,,岡山県教育委員会2022a,B330159,,,,,,発掘調査,20220530,小嶋善邦,,,
330270,,マキサヤ遺跡,,,,Makisaya,,浅口郡里庄町新庄,34.499655,133.559192,世界,30,,,,,,,,,,,,,,,,,縦長剥片/石核,,,,,,,岡山県教育委員会2022b,B330160,,,,,,発掘調査,20220530,小嶋善邦,,,
